,codigo_ibge,nome,latitude,longitude,capital,codigo_uf,siafi_id,ddd,fuso_horario
0,3500105,ADAMANTINA,-21.682,-51.0737,0,35,6101,18,America/Sao_Paulo
1,3500204,ADOLFO,-21.2325,-49.6451,0,35,6103,17,America/Sao_Paulo
2,3500303,AGUAI,-22.0572,-46.9735,0,35,6105,19,America/Sao_Paulo
3,3500402,AGUAS DA PRATA,-21.9319,-46.7176,0,35,6107,19,America/Sao_Paulo
4,3500501,AGUAS DE LINDOIA,-22.4733,-46.6314,0,35,6109,19,America/Sao_Paulo
5,3500550,AGUAS DE SANTA BARBARA,-22.8812,-49.2421,0,35,7019,14,America/Sao_Paulo
6,3500600,AGUAS DE SAO PEDRO,-22.5977,-47.8734,0,35,6111,19,America/Sao_Paulo
7,3500709,AGUDOS,-22.4694,-48.9863,0,35,6113,14,America/Sao_Paulo
8,3500758,ALAMBARI,-23.5503,-47.898,0,35,2995,15,America/Sao_Paulo
9,3500808,ALFREDO MARCONDES,-21.9527,-51.414,0,35,6115,18,America/Sao_Paulo
10,3500907,ALTAIR,-20.5242,-49.0571,0,35,6117,17,America/Sao_Paulo
11,3501004,ALTINOPOLIS,-21.0214,-47.3712,0,35,6119,16,America/Sao_Paulo
12,3501103,ALTO ALEGRE,-21.5811,-50.168,0,35,6121,18,America/Sao_Paulo
13,3501152,ALUMINIO,-23.5306,-47.2546,0,35,3065,11,America/Sao_Paulo
14,3501202,ALVARES FLORENCE,-20.3203,-49.9141,0,35,6123,17,America/Sao_Paulo
15,3501301,ALVARES MACHADO,-22.0764,-51.4722,0,35,6125,18,America/Sao_Paulo
16,3501400,ALVARO DE CARVALHO,-22.0841,-49.719,0,35,6127,14,America/Sao_Paulo
17,3501509,ALVINLANDIA,-22.4435,-49.7623,0,35,6129,14,America/Sao_Paulo
18,3501608,AMERICANA,-22.7374,-47.3331,0,35,6131,19,America/Sao_Paulo
19,3501707,AMERICO BRASILIENSE,-21.7288,-48.1147,0,35,6133,16,America/Sao_Paulo
20,3501806,AMERICO DE CAMPOS,-20.2985,-49.7359,0,35,6135,17,America/Sao_Paulo
21,3501905,AMPARO,-22.7088,-46.772,0,35,6137,19,America/Sao_Paulo
22,3502002,ANALANDIA,-22.1289,-47.6619,0,35,6139,19,America/Sao_Paulo
23,3502101,ANDRADINA,-20.8948,-51.3786,0,35,6141,18,America/Sao_Paulo
24,3502200,ANGATUBA,-23.4917,-48.4139,0,35,6143,15,America/Sao_Paulo
25,3502309,ANHEMBI,-22.793,-48.1336,0,35,6145,14,America/Sao_Paulo
26,3502408,ANHUMAS,-22.2934,-51.3895,0,35,6147,18,America/Sao_Paulo
27,3502507,APARECIDA,-22.8495,-45.2325,0,35,6149,12,America/Sao_Paulo
28,3502606,APARECIDA D'OESTE,-20.4487,-50.8835,0,35,6151,17,America/Sao_Paulo
29,3502705,APIAI,-24.5108,-48.8443,0,35,6153,15,America/Sao_Paulo
30,3502754,ARACARIGUAMA,-23.4366,-47.0608,0,35,3067,11,America/Sao_Paulo
31,3502804,ARACATUBA,-21.2076,-50.4401,0,35,6155,18,America/Sao_Paulo
32,3502903,ARACOIABA DA SERRA,-23.5029,-47.6166,0,35,6157,15,America/Sao_Paulo
33,3503000,ARAMINA,-20.0882,-47.7873,0,35,6159,16,America/Sao_Paulo
34,3503109,ARANDU,-23.1386,-49.0487,0,35,6161,14,America/Sao_Paulo
35,3503158,ARAPEI,-22.6717,-44.4441,0,35,2991,12,America/Sao_Paulo
36,3503208,ARARAQUARA,-21.7845,-48.178,0,35,6163,16,America/Sao_Paulo
37,3503307,ARARAS,-22.3572,-47.3842,0,35,6165,19,America/Sao_Paulo
38,3503356,ARCO-IRIS,-21.7728,-50.466,0,35,790,14,America/Sao_Paulo
39,3503406,AREALVA,-22.031,-48.9135,0,35,6167,14,America/Sao_Paulo
40,3503505,AREIAS,-22.5786,-44.6992,0,35,6169,12,America/Sao_Paulo
41,3503604,AREIOPOLIS,-22.6672,-48.6681,0,35,6171,14,America/Sao_Paulo
42,3503703,ARIRANHA,-21.1872,-48.7904,0,35,6173,17,America/Sao_Paulo
43,3503802,ARTUR NOGUEIRA,-22.5727,-47.1727,0,35,6175,19,America/Sao_Paulo
44,3503901,ARUJA,-23.3965,-46.32,0,35,6177,11,America/Sao_Paulo
45,3503950,ASPASIA,-20.16,-50.728,0,35,2981,17,America/Sao_Paulo
46,3504008,ASSIS,-22.66,-50.4183,0,35,6179,18,America/Sao_Paulo
47,3504107,ATIBAIA,-23.1171,-46.5563,0,35,6181,11,America/Sao_Paulo
48,3504206,AURIFLAMA,-20.6836,-50.5572,0,35,6183,17,America/Sao_Paulo
49,3504305,AVAI,-22.1514,-49.3356,0,35,6185,14,America/Sao_Paulo
50,3504404,AVANHANDAVA,-21.4584,-49.9509,0,35,6187,18,America/Sao_Paulo
51,3504503,AVARE,-23.1067,-48.9251,0,35,6189,14,America/Sao_Paulo
52,3504602,BADY BASSITT,-20.9197,-49.4385,0,35,6191,17,America/Sao_Paulo
53,3504701,BALBINOS,-21.8963,-49.3619,0,35,6193,14,America/Sao_Paulo
54,3504800,BALSAMO,-20.7348,-49.5865,0,35,6195,17,America/Sao_Paulo
55,3504909,BANANAL,-22.6819,-44.3281,0,35,6197,12,America/Sao_Paulo
56,3505005,BARAO DE ANTONINA,-23.6284,-49.5634,0,35,6201,15,America/Sao_Paulo
57,3505104,BARBOSA,-21.2657,-49.9518,0,35,6199,18,America/Sao_Paulo
58,3505203,BARIRI,-22.073,-48.7438,0,35,6203,14,America/Sao_Paulo
59,3505302,BARRA BONITA,-22.4909,-48.5583,0,35,6205,14,America/Sao_Paulo
60,3505351,BARRA DO CHAPEU,-24.4722,-49.0238,0,35,2997,15,America/Sao_Paulo
61,3505401,BARRA DO TURVO,-24.759,-48.5013,0,35,6207,15,America/Sao_Paulo
62,3505500,BARRETOS,-20.5531,-48.5698,0,35,6209,17,America/Sao_Paulo
63,3505609,BARRINHA,-21.1864,-48.1636,0,35,6211,16,America/Sao_Paulo
64,3505708,BARUERI,-23.5057,-46.879,0,35,6213,11,America/Sao_Paulo
65,3505807,BASTOS,-21.921,-50.7357,0,35,6215,14,America/Sao_Paulo
66,3505906,BATATAIS,-20.8929,-47.5921,0,35,6217,16,America/Sao_Paulo
67,3506003,BAURU,-22.3246,-49.0871,0,35,6219,14,America/Sao_Paulo
68,3506102,BEBEDOURO,-20.9491,-48.4791,0,35,6221,17,America/Sao_Paulo
69,3506201,BENTO DE ABREU,-21.2686,-50.814,0,35,6223,18,America/Sao_Paulo
70,3506300,BERNARDINO DE CAMPOS,-23.0164,-49.4679,0,35,6225,14,America/Sao_Paulo
71,3506359,BERTIOGA,-23.8486,-46.1396,0,35,2965,13,America/Sao_Paulo
72,3506409,BILAC,-21.404,-50.4746,0,35,6227,18,America/Sao_Paulo
73,3506508,BIRIGUI,-21.291,-50.3432,0,35,6229,18,America/Sao_Paulo
74,3506607,BIRITIBA-MIRIM,-23.5698,-46.0407,0,35,6231,11,America/Sao_Paulo
75,3506706,BOA ESPERANCA DO SUL,-21.9918,-48.3906,0,35,6233,16,America/Sao_Paulo
76,3506805,BOCAINA,-22.1365,-48.523,0,35,6235,14,America/Sao_Paulo
77,3506904,BOFETE,-23.1055,-48.2582,0,35,6237,14,America/Sao_Paulo
78,3507001,BOITUVA,-23.2855,-47.6786,0,35,6239,15,America/Sao_Paulo
79,3507100,BOM JESUS DOS PERDOES,-23.1356,-46.4675,0,35,6241,11,America/Sao_Paulo
80,3507159,BOM SUCESSO DE ITARARE,-24.3155,-49.1451,0,35,3059,15,America/Sao_Paulo
81,3507209,BORA,-22.2696,-50.5409,0,35,6243,18,America/Sao_Paulo
82,3507308,BORACEIA,-22.1926,-48.7808,0,35,6245,14,America/Sao_Paulo
83,3507407,BORBOREMA,-21.6214,-49.0741,0,35,6247,16,America/Sao_Paulo
84,3507456,BOREBI,-22.5728,-48.9707,0,35,7247,14,America/Sao_Paulo
85,3507506,BOTUCATU,-22.8837,-48.4437,0,35,6249,14,America/Sao_Paulo
86,3507605,BRAGANCA PAULISTA,-22.9527,-46.5419,0,35,6251,11,America/Sao_Paulo
87,3507704,BRAUNA,-21.499,-50.3175,0,35,6255,18,America/Sao_Paulo
88,3507753,BREJO ALEGRE,-21.1651,-50.1861,0,35,792,18,America/Sao_Paulo
89,3507803,BRODOWSKI,-20.9845,-47.6572,0,35,6257,16,America/Sao_Paulo
90,3507902,BROTAS,-22.2795,-48.1251,0,35,6259,14,America/Sao_Paulo
91,3508009,BURI,-23.7977,-48.5958,0,35,6261,15,America/Sao_Paulo
92,3508108,BURITAMA,-21.0661,-50.1475,0,35,6263,18,America/Sao_Paulo
93,3508207,BURITIZAL,-20.1911,-47.7096,0,35,6265,16,America/Sao_Paulo
94,3508306,CABRALIA PAULISTA,-22.4576,-49.3393,0,35,6267,14,America/Sao_Paulo
95,3508405,CABREUVA,-23.3053,-47.1362,0,35,6269,11,America/Sao_Paulo
96,3508504,CACAPAVA,-23.0992,-45.7076,0,35,6271,12,America/Sao_Paulo
97,3508603,CACHOEIRA PAULISTA,-22.6665,-45.0154,0,35,6273,12,America/Sao_Paulo
98,3508702,CACONDE,-21.528,-46.6437,0,35,6275,19,America/Sao_Paulo
99,3508801,CAFELANDIA,-21.8031,-49.6092,0,35,6277,14,America/Sao_Paulo
100,3508900,CAIABU,-22.0127,-51.2394,0,35,6279,18,America/Sao_Paulo
101,3509007,CAIEIRAS,-23.3607,-46.7397,0,35,6281,11,America/Sao_Paulo
102,3509106,CAIUA,-21.8322,-51.9969,0,35,6283,18,America/Sao_Paulo
103,3509205,CAJAMAR,-23.355,-46.8781,0,35,6285,11,America/Sao_Paulo
104,3509254,CAJATI,-24.7324,-48.1223,0,35,2967,13,America/Sao_Paulo
105,3509304,CAJOBI,-20.8773,-48.8063,0,35,6287,17,America/Sao_Paulo
106,3509403,CAJURU,-21.2749,-47.303,0,35,6289,16,America/Sao_Paulo
107,3509452,CAMPINA DO MONTE ALEGRE,-23.5895,-48.4758,0,35,2999,15,America/Sao_Paulo
108,3509502,CAMPINAS,-22.9053,-47.0659,0,35,6291,19,America/Sao_Paulo
109,3509601,CAMPO LIMPO PAULISTA,-23.2078,-46.7889,0,35,6293,11,America/Sao_Paulo
110,3509700,CAMPOS DO JORDAO,-22.7296,-45.5833,0,35,6295,12,America/Sao_Paulo
111,3509809,CAMPOS NOVOS PAULISTA,-22.602,-49.9987,0,35,6297,14,America/Sao_Paulo
112,3509908,CANANEIA,-25.0144,-47.9341,0,35,6299,13,America/Sao_Paulo
113,3509957,CANAS,-22.7003,-45.0521,0,35,794,12,America/Sao_Paulo
114,3510005,CANDIDO MOTA,-22.7471,-50.3873,0,35,6301,18,America/Sao_Paulo
115,3510104,CANDIDO RODRIGUES,-21.3275,-48.6327,0,35,6303,16,America/Sao_Paulo
116,3510153,CANITAR,-23.004,-49.7839,0,35,2947,14,America/Sao_Paulo
117,3510203,CAPAO BONITO,-24.0113,-48.3482,0,35,6305,15,America/Sao_Paulo
118,3510302,CAPELA DO ALTO,-23.4685,-47.7388,0,35,6307,15,America/Sao_Paulo
119,3510401,CAPIVARI,-22.9951,-47.5071,0,35,6309,19,America/Sao_Paulo
120,3510500,CARAGUATATUBA,-23.6125,-45.4125,0,35,6311,12,America/Sao_Paulo
121,3510609,CARAPICUIBA,-23.5235,-46.8407,0,35,6313,11,America/Sao_Paulo
122,3510708,CARDOSO,-20.08,-49.9183,0,35,6315,17,America/Sao_Paulo
123,3510807,CASA BRANCA,-21.7708,-47.0852,0,35,6317,19,America/Sao_Paulo
124,3510906,CASSIA DOS COQUEIROS,-21.2801,-47.1643,0,35,6319,16,America/Sao_Paulo
125,3511003,CASTILHO,-20.8689,-51.4884,0,35,6321,18,America/Sao_Paulo
126,3511102,CATANDUVA,-21.1314,-48.977,0,35,6323,17,America/Sao_Paulo
127,3511201,CATIGUA,-21.0519,-49.0616,0,35,6325,17,America/Sao_Paulo
128,3511300,CEDRAL,-20.9009,-49.2664,0,35,6327,17,America/Sao_Paulo
129,3511409,CERQUEIRA CESAR,-23.038,-49.1655,0,35,6329,14,America/Sao_Paulo
130,3511508,CERQUILHO,-23.1665,-47.7459,0,35,6331,15,America/Sao_Paulo
131,3511607,CESARIO LANGE,-23.226,-47.9545,0,35,6333,15,America/Sao_Paulo
132,3511706,CHARQUEADA,-22.5096,-47.7755,0,35,6335,19,America/Sao_Paulo
133,3557204,CHAVANTES,-23.0366,-49.7096,0,35,6337,14,America/Sao_Paulo
134,3511904,CLEMENTINA,-21.5604,-50.4525,0,35,6339,18,America/Sao_Paulo
135,3512001,COLINA,-20.7114,-48.5387,0,35,6341,17,America/Sao_Paulo
136,3512100,COLOMBIA,-20.1768,-48.6865,0,35,6343,17,America/Sao_Paulo
137,3512209,CONCHAL,-22.3375,-47.1729,0,35,6345,19,America/Sao_Paulo
138,3512308,CONCHAS,-23.0154,-48.0134,0,35,6347,14,America/Sao_Paulo
139,3512407,CORDEIROPOLIS,-22.4778,-47.4519,0,35,6349,19,America/Sao_Paulo
140,3512506,COROADOS,-21.3521,-50.2859,0,35,6351,18,America/Sao_Paulo
141,3512605,CORONEL MACEDO,-23.6261,-49.31,0,35,6353,14,America/Sao_Paulo
142,3512704,CORUMBATAI,-22.2213,-47.6215,0,35,6355,19,America/Sao_Paulo
143,3512803,COSMOPOLIS,-22.6419,-47.1926,0,35,6357,19,America/Sao_Paulo
144,3512902,COSMORAMA,-20.4755,-49.7827,0,35,6359,17,America/Sao_Paulo
145,3513009,COTIA,-23.6022,-46.919,0,35,6361,11,America/Sao_Paulo
146,3513108,CRAVINHOS,-21.338,-47.7324,0,35,6363,16,America/Sao_Paulo
147,3513207,CRISTAIS PAULISTA,-20.4036,-47.4209,0,35,6365,16,America/Sao_Paulo
148,3513306,CRUZALIA,-22.7373,-50.7909,0,35,6367,18,America/Sao_Paulo
149,3513405,CRUZEIRO,-22.5728,-44.969,0,35,6369,12,America/Sao_Paulo
150,3513504,CUBATAO,-23.8911,-46.424,0,35,6371,13,America/Sao_Paulo
151,3513603,CUNHA,-23.0731,-44.9576,0,35,6373,12,America/Sao_Paulo
152,3513702,DESCALVADO,-21.9002,-47.6181,0,35,6375,19,America/Sao_Paulo
153,3513801,DIADEMA,-23.6813,-46.6205,0,35,6377,11,America/Sao_Paulo
154,3513850,DIRCE REIS,-20.4642,-50.6073,0,35,7249,17,America/Sao_Paulo
155,3513900,DIVINOLANDIA,-21.6637,-46.7361,0,35,6379,19,America/Sao_Paulo
156,3514007,DOBRADA,-21.5155,-48.3935,0,35,6381,16,America/Sao_Paulo
157,3514106,DOIS CORREGOS,-22.3673,-48.3819,0,35,6383,14,America/Sao_Paulo
158,3514205,DOLCINOPOLIS,-20.124,-50.5149,0,35,6385,17,America/Sao_Paulo
159,3514304,DOURADO,-22.1044,-48.3178,0,35,6387,16,America/Sao_Paulo
160,3514403,DRACENA,-21.4843,-51.535,0,35,6389,18,America/Sao_Paulo
161,3514502,DUARTINA,-22.4146,-49.4084,0,35,6391,14,America/Sao_Paulo
162,3514601,DUMONT,-21.2324,-47.9756,0,35,6393,16,America/Sao_Paulo
163,3514700,ECHAPORA,-22.4326,-50.2038,0,35,6395,18,America/Sao_Paulo
164,3514809,ELDORADO,-24.5281,-48.1141,0,35,6397,13,America/Sao_Paulo
165,3514908,ELIAS FAUSTO,-23.0428,-47.3682,0,35,6399,19,America/Sao_Paulo
166,3514924,ELISIARIO,-21.1678,-49.1146,0,35,2975,17,America/Sao_Paulo
167,3514957,EMBAUBA,-20.9796,-48.8325,0,35,7251,17,America/Sao_Paulo
168,3515004,EMBU DAS ARTES,-23.6437,-46.8579,0,35,6401,11,America/Sao_Paulo
169,3515103,EMBU-GUACU,-23.8297,-46.8136,0,35,6403,11,America/Sao_Paulo
170,3515129,EMILIANOPOLIS,-21.8314,-51.4832,0,35,2961,18,America/Sao_Paulo
171,3515152,ENGENHEIRO COELHO,-22.4836,-47.211,0,35,2949,19,America/Sao_Paulo
172,3515186,ESPIRITO SANTO DO PINHAL,-22.1909,-46.7477,0,35,6865,19,America/Sao_Paulo
173,3515194,ESPIRITO SANTO DO TURVO,-22.6925,-49.4341,0,35,7253,14,America/Sao_Paulo
174,3557303,ESTIVA GERBI,-22.2713,-46.9481,0,35,2959,19,America/Sao_Paulo
175,3515202,ESTRELA D'OESTE,-20.2875,-50.4049,0,35,6405,17,America/Sao_Paulo
176,3515301,ESTRELA DO NORTE,-22.4859,-51.6632,0,35,6407,18,America/Sao_Paulo
177,3515350,EUCLIDES DA CUNHA PAULISTA,-22.5545,-52.5928,0,35,7255,18,America/Sao_Paulo
178,3515400,FARTURA,-23.3916,-49.5124,0,35,6409,14,America/Sao_Paulo
179,3515608,FERNANDO PRESTES,-21.2661,-48.6874,0,35,6413,16,America/Sao_Paulo
180,3515509,FERNANDOPOLIS,-20.2806,-50.2471,0,35,6411,17,America/Sao_Paulo
181,3515657,FERNAO,-22.3607,-49.5187,0,35,796,14,America/Sao_Paulo
182,3515707,FERRAZ DE VASCONCELOS,-23.5411,-46.371,0,35,6415,11,America/Sao_Paulo
183,3515806,FLORA RICA,-21.6727,-51.3821,0,35,6417,18,America/Sao_Paulo
184,3515905,FLOREAL,-20.6752,-50.1513,0,35,6419,17,America/Sao_Paulo
185,3516002,FLORIDA PAULISTA,-21.6127,-51.1724,0,35,6421,18,America/Sao_Paulo
186,3516101,FLORINIA,-22.868,-50.6814,0,35,6423,18,America/Sao_Paulo
187,3516200,FRANCA,-20.5352,-47.4039,0,35,6425,16,America/Sao_Paulo
188,3516309,FRANCISCO MORATO,-23.2792,-46.7448,0,35,6427,11,America/Sao_Paulo
189,3516408,FRANCO DA ROCHA,-23.3229,-46.729,0,35,6429,11,America/Sao_Paulo
190,3516507,GABRIEL MONTEIRO,-21.5294,-50.5573,0,35,6431,18,America/Sao_Paulo
191,3516606,GALIA,-22.2918,-49.5504,0,35,6433,14,America/Sao_Paulo
192,3516705,GARCA,-22.2125,-49.6546,0,35,6435,14,America/Sao_Paulo
193,3516804,GASTAO VIDIGAL,-20.7948,-50.1912,0,35,6437,17,America/Sao_Paulo
194,3516853,GAVIAO PEIXOTO,-21.8367,-48.4957,0,35,798,16,America/Sao_Paulo
195,3516903,GENERAL SALGADO,-20.6485,-50.364,0,35,6439,17,America/Sao_Paulo
196,3517000,GETULINA,-21.7961,-49.9312,0,35,6441,14,America/Sao_Paulo
197,3517109,GLICERIO,-21.3812,-50.2123,0,35,6443,18,America/Sao_Paulo
198,3517208,GUAICARA,-21.6195,-49.8013,0,35,6445,14,America/Sao_Paulo
199,3517307,GUAIMBE,-21.9091,-49.8986,0,35,6447,14,America/Sao_Paulo
200,3517406,GUAIRA,-20.3196,-48.312,0,35,6449,17,America/Sao_Paulo
201,3517505,GUAPIACU,-20.7959,-49.2172,0,35,6451,17,America/Sao_Paulo
202,3517604,GUAPIARA,-24.1892,-48.5295,0,35,6453,15,America/Sao_Paulo
203,3517703,GUARA,-20.4302,-47.8236,0,35,6455,16,America/Sao_Paulo
204,3517802,GUARACAI,-21.0292,-51.2119,0,35,6457,18,America/Sao_Paulo
205,3517901,GUARACI,-20.4977,-48.9391,0,35,6459,17,America/Sao_Paulo
206,3518008,GUARANI D'OESTE,-20.0746,-50.3411,0,35,6461,17,America/Sao_Paulo
207,3518107,GUARANTA,-21.8942,-49.5914,0,35,6463,14,America/Sao_Paulo
208,3518206,GUARARAPES,-21.2544,-50.6453,0,35,6465,18,America/Sao_Paulo
209,3518305,GUARAREMA,-23.4112,-46.0369,0,35,6467,11,America/Sao_Paulo
210,3518404,GUARATINGUETA,-22.8075,-45.1938,0,35,6469,12,America/Sao_Paulo
211,3518503,GUAREI,-23.3714,-48.1837,0,35,6471,15,America/Sao_Paulo
212,3518602,GUARIBA,-21.3594,-48.2316,0,35,6473,16,America/Sao_Paulo
213,3518701,GUARUJA,-23.9888,-46.258,0,35,6475,13,America/Sao_Paulo
214,3518800,GUARULHOS,-23.4538,-46.5333,0,35,6477,11,America/Sao_Paulo
215,3518859,GUATAPARA,-21.4944,-48.0356,0,35,7257,16,America/Sao_Paulo
216,3518909,GUZOLANDIA,-20.6467,-50.6645,0,35,6479,17,America/Sao_Paulo
217,3519006,HERCULANDIA,-22.0038,-50.3907,0,35,6481,14,America/Sao_Paulo
218,3519055,HOLAMBRA,-22.6405,-47.0487,0,35,2953,19,America/Sao_Paulo
219,3519071,HORTOLANDIA,-22.8529,-47.2143,0,35,2951,19,America/Sao_Paulo
220,3519105,IACANGA,-21.8896,-49.031,0,35,6483,14,America/Sao_Paulo
221,3519204,IACRI,-21.8572,-50.6932,0,35,6485,14,America/Sao_Paulo
222,3519253,IARAS,-22.8682,-49.1634,0,35,7259,14,America/Sao_Paulo
223,3519303,IBATE,-21.9584,-47.9882,0,35,6487,16,America/Sao_Paulo
224,3519402,IBIRA,-21.083,-49.2448,0,35,6489,17,America/Sao_Paulo
225,3519501,IBIRAREMA,-22.8185,-50.0739,0,35,6491,14,America/Sao_Paulo
226,3519600,IBITINGA,-21.7562,-48.8319,0,35,6493,16,America/Sao_Paulo
227,3519709,IBIUNA,-23.6596,-47.223,0,35,6495,15,America/Sao_Paulo
228,3519808,ICEM,-20.3391,-49.1915,0,35,6497,17,America/Sao_Paulo
229,3519907,IEPE,-22.6602,-51.0779,0,35,6499,18,America/Sao_Paulo
230,3520004,IGARACU DO TIETE,-22.509,-48.5597,0,35,6501,14,America/Sao_Paulo
231,3520103,IGARAPAVA,-20.0407,-47.7466,0,35,6503,16,America/Sao_Paulo
232,3520202,IGARATA,-23.2037,-46.157,0,35,6505,11,America/Sao_Paulo
233,3520301,IGUAPE,-24.699,-47.5537,0,35,6507,13,America/Sao_Paulo
234,3520426,ILHA COMPRIDA,-24.7307,-47.5383,0,35,2969,13,America/Sao_Paulo
235,3520442,ILHA SOLTEIRA,-20.4326,-51.3426,0,35,2943,18,America/Sao_Paulo
236,3520400,ILHABELA,-23.7785,-45.3552,0,35,6509,12,America/Sao_Paulo
237,3520509,INDAIATUBA,-23.0816,-47.2101,0,35,6511,19,America/Sao_Paulo
238,3520608,INDIANA,-22.1738,-51.2555,0,35,6513,18,America/Sao_Paulo
239,3520707,INDIAPORA,-19.979,-50.2909,0,35,6515,17,America/Sao_Paulo
240,3520806,INUBIA PAULISTA,-21.7695,-50.9633,0,35,6517,18,America/Sao_Paulo
241,3520905,IPAUSSU,-23.0575,-49.6279,0,35,6519,14,America/Sao_Paulo
242,3521002,IPERO,-23.3513,-47.6927,0,35,6521,15,America/Sao_Paulo
243,3521101,IPEUNA,-22.4355,-47.7151,0,35,6523,19,America/Sao_Paulo
244,3521150,IPIGUA,-20.6557,-49.3842,0,35,800,17,America/Sao_Paulo
245,3521200,IPORANGA,-24.5847,-48.5971,0,35,6525,15,America/Sao_Paulo
246,3521309,IPUA,-20.4438,-48.0129,0,35,6527,16,America/Sao_Paulo
247,3521408,IRACEMAPOLIS,-22.5832,-47.523,0,35,6529,19,America/Sao_Paulo
248,3521507,IRAPUA,-21.2768,-49.4164,0,35,6531,17,America/Sao_Paulo
249,3521606,IRAPURU,-21.5684,-51.3472,0,35,6533,18,America/Sao_Paulo
250,3521705,ITABERA,-23.8638,-49.14,0,35,6535,15,America/Sao_Paulo
251,3521804,ITAI,-23.4213,-49.092,0,35,6537,14,America/Sao_Paulo
252,3521903,ITAJOBI,-21.3123,-49.0629,0,35,6539,17,America/Sao_Paulo
253,3522000,ITAJU,-21.9857,-48.8116,0,35,6541,14,America/Sao_Paulo
254,3522109,ITANHAEM,-24.1736,-46.788,0,35,6543,13,America/Sao_Paulo
255,3522158,ITAOCA,-24.6393,-48.8413,0,35,3053,15,America/Sao_Paulo
256,3522208,ITAPECERICA DA SERRA,-23.7161,-46.8572,0,35,6545,11,America/Sao_Paulo
257,3522307,ITAPETININGA,-23.5886,-48.0483,0,35,6547,15,America/Sao_Paulo
258,3522406,ITAPEVA,-23.9788,-48.8764,0,35,6549,15,America/Sao_Paulo
259,3522505,ITAPEVI,-23.5488,-46.9327,0,35,6551,11,America/Sao_Paulo
260,3522604,ITAPIRA,-22.4357,-46.8224,0,35,6553,19,America/Sao_Paulo
261,3522653,ITAPIRAPUA PAULISTA,-24.572,-49.1661,0,35,3055,15,America/Sao_Paulo
262,3522703,ITAPOLIS,-21.5942,-48.8149,0,35,6555,16,America/Sao_Paulo
263,3522802,ITAPORANGA,-23.7043,-49.4819,0,35,6557,15,America/Sao_Paulo
264,3522901,ITAPUI,-22.2324,-48.7197,0,35,6559,14,America/Sao_Paulo
265,3523008,ITAPURA,-20.6419,-51.5063,0,35,6561,18,America/Sao_Paulo
266,3523107,ITAQUAQUECETUBA,-23.4835,-46.3457,0,35,6563,11,America/Sao_Paulo
267,3523206,ITARARE,-24.1085,-49.3352,0,35,6565,15,America/Sao_Paulo
268,3523305,ITARIRI,-24.2834,-47.1736,0,35,6567,13,America/Sao_Paulo
269,3523404,ITATIBA,-23.0035,-46.8464,0,35,6569,11,America/Sao_Paulo
270,3523503,ITATINGA,-23.1047,-48.6157,0,35,6571,14,America/Sao_Paulo
271,3523602,ITIRAPINA,-22.2562,-47.8166,0,35,6573,19,America/Sao_Paulo
272,3523701,ITIRAPUA,-20.6416,-47.2194,0,35,6575,16,America/Sao_Paulo
273,3523800,ITOBI,-21.7309,-46.9743,0,35,6577,19,America/Sao_Paulo
274,3523909,ITU,-23.2544,-47.2927,0,35,6579,11,America/Sao_Paulo
275,3524006,ITUPEVA,-23.1526,-47.0593,0,35,6581,11,America/Sao_Paulo
276,3524105,ITUVERAVA,-20.3355,-47.7902,0,35,6583,16,America/Sao_Paulo
277,3524204,JABORANDI,-20.6884,-48.4112,0,35,6585,17,America/Sao_Paulo
278,3524303,JABOTICABAL,-21.252,-48.3252,0,35,6587,16,America/Sao_Paulo
279,3524402,JACAREI,-23.2983,-45.9658,0,35,6589,12,America/Sao_Paulo
280,3524501,JACI,-20.8805,-49.5797,0,35,6591,17,America/Sao_Paulo
281,3524600,JACUPIRANGA,-24.6963,-48.0064,0,35,6593,13,America/Sao_Paulo
282,3524709,JAGUARIUNA,-22.7037,-46.9851,0,35,6595,19,America/Sao_Paulo
283,3524808,JALES,-20.2672,-50.5494,0,35,6597,17,America/Sao_Paulo
284,3524907,JAMBEIRO,-23.2522,-45.6942,0,35,6599,12,America/Sao_Paulo
285,3525003,JANDIRA,-23.5275,-46.9023,0,35,6601,11,America/Sao_Paulo
286,3525102,JARDINOPOLIS,-21.0176,-47.7606,0,35,6603,16,America/Sao_Paulo
287,3525201,JARINU,-23.1039,-46.728,0,35,6605,11,America/Sao_Paulo
288,3525300,JAU,-22.2936,-48.5592,0,35,6607,14,America/Sao_Paulo
289,3525409,JERIQUARA,-20.3116,-47.5918,0,35,6609,16,America/Sao_Paulo
290,3525508,JOANOPOLIS,-22.927,-46.2741,0,35,6611,11,America/Sao_Paulo
291,3525607,JOAO RAMALHO,-22.2473,-50.7694,0,35,6613,18,America/Sao_Paulo
292,3525706,JOSE BONIFACIO,-21.0551,-49.6892,0,35,6615,17,America/Sao_Paulo
293,3525805,JULIO MESQUITA,-22.0112,-49.7873,0,35,6617,14,America/Sao_Paulo
294,3525854,JUMIRIM,-23.0884,-47.7868,0,35,802,15,America/Sao_Paulo
295,3525904,JUNDIAI,-23.1852,-46.8974,0,35,6619,11,America/Sao_Paulo
296,3526001,JUNQUEIROPOLIS,-21.5103,-51.4342,0,35,6621,18,America/Sao_Paulo
297,3526100,JUQUIA,-24.3101,-47.6426,0,35,6623,13,America/Sao_Paulo
298,3526209,JUQUITIBA,-23.9244,-47.0653,0,35,6625,11,America/Sao_Paulo
299,3526308,LAGOINHA,-23.0846,-45.1944,0,35,6627,12,America/Sao_Paulo
300,3526407,LARANJAL PAULISTA,-23.0506,-47.8375,0,35,6629,15,America/Sao_Paulo
301,3526506,LAVINIA,-21.1639,-51.0412,0,35,6631,18,America/Sao_Paulo
302,3526605,LAVRINHAS,-22.57,-44.9024,0,35,6633,12,America/Sao_Paulo
303,3526704,LEME,-22.1809,-47.3841,0,35,6635,19,America/Sao_Paulo
304,3526803,LENCOIS PAULISTA,-22.6027,-48.8037,0,35,6637,14,America/Sao_Paulo
305,3526902,LIMEIRA,-22.566,-47.397,0,35,6639,19,America/Sao_Paulo
306,3527009,LINDOIA,-22.5226,-46.65,0,35,6641,19,America/Sao_Paulo
307,3527108,LINS,-21.6718,-49.7526,0,35,6643,14,America/Sao_Paulo
308,3527207,LORENA,-22.7334,-45.1197,0,35,6645,12,America/Sao_Paulo
309,3527256,LOURDES,-20.966,-50.2263,0,35,2937,18,America/Sao_Paulo
310,3527306,LOUVEIRA,-23.0856,-46.9484,0,35,6647,19,America/Sao_Paulo
311,3527405,LUCELIA,-21.7182,-51.0215,0,35,6649,18,America/Sao_Paulo
312,3527504,LUCIANOPOLIS,-22.4294,-49.522,0,35,6651,14,America/Sao_Paulo
313,3527603,LUIS ANTONIO,-21.55,-47.7801,0,35,6653,16,America/Sao_Paulo
314,3527702,LUIZIANIA,-21.6737,-50.3294,0,35,6655,18,America/Sao_Paulo
315,3527801,LUPERCIO,-22.4146,-49.818,0,35,6657,14,America/Sao_Paulo
316,3527900,LUTECIA,-22.3384,-50.394,0,35,6659,18,America/Sao_Paulo
317,3528007,MACATUBA,-22.5002,-48.7102,0,35,6661,14,America/Sao_Paulo
318,3528106,MACAUBAL,-20.8022,-49.9687,0,35,6663,17,America/Sao_Paulo
319,3528205,MACEDONIA,-20.1444,-50.1973,0,35,6665,17,America/Sao_Paulo
320,3528304,MAGDA,-20.6445,-50.2305,0,35,6667,17,America/Sao_Paulo
321,3528403,MAIRINQUE,-23.5398,-47.185,0,35,6669,11,America/Sao_Paulo
322,3528502,MAIRIPORA,-23.3171,-46.5897,0,35,6671,11,America/Sao_Paulo
323,3528601,MANDURI,-23.0056,-49.3202,0,35,6673,14,America/Sao_Paulo
324,3528700,MARABA PAULISTA,-22.1068,-51.9617,0,35,6675,18,America/Sao_Paulo
325,3528809,MARACAI,-22.6149,-50.6713,0,35,6677,18,America/Sao_Paulo
326,3528858,MARAPOAMA,-21.2587,-49.13,0,35,2977,17,America/Sao_Paulo
327,3528908,MARIAPOLIS,-21.7959,-51.1824,0,35,6679,18,America/Sao_Paulo
328,3529005,MARILIA,-22.2171,-49.9501,0,35,6681,14,America/Sao_Paulo
329,3529104,MARINOPOLIS,-20.4389,-50.8254,0,35,6683,17,America/Sao_Paulo
330,3529203,MARTINOPOLIS,-22.1462,-51.1709,0,35,6685,18,America/Sao_Paulo
331,3529302,MATAO,-21.6025,-48.364,0,35,6687,16,America/Sao_Paulo
332,3529401,MAUA,-23.6677,-46.4613,0,35,6689,11,America/Sao_Paulo
333,3529500,MENDONCA,-21.1757,-49.5791,0,35,6691,17,America/Sao_Paulo
334,3529609,MERIDIANO,-20.3579,-50.1811,0,35,6693,17,America/Sao_Paulo
335,3529658,MESOPOLIS,-19.9684,-50.6326,0,35,2983,17,America/Sao_Paulo
336,3529708,MIGUELOPOLIS,-20.1796,-48.031,0,35,6695,16,America/Sao_Paulo
337,3529807,MINEIROS DO TIETE,-22.412,-48.451,0,35,6697,14,America/Sao_Paulo
338,3530003,MIRA ESTRELA,-19.9789,-50.139,0,35,6701,17,America/Sao_Paulo
339,3529906,MIRACATU,-24.2766,-47.4625,0,35,6699,13,America/Sao_Paulo
340,3530102,MIRANDOPOLIS,-21.1313,-51.1035,0,35,6703,18,America/Sao_Paulo
341,3530201,MIRANTE DO PARANAPANEMA,-22.2904,-51.9084,0,35,6705,18,America/Sao_Paulo
342,3530300,MIRASSOL,-20.8169,-49.5206,0,35,6707,17,America/Sao_Paulo
343,3530409,MIRASSOLANDIA,-20.6179,-49.4617,0,35,6709,17,America/Sao_Paulo
344,3530508,MOCOCA,-21.4647,-47.0024,0,35,6711,19,America/Sao_Paulo
345,3530607,MOGI DAS CRUZES,-23.5208,-46.1854,0,35,6713,11,America/Sao_Paulo
346,3530706,MOGI GUACU,-22.3675,-46.9428,0,35,6715,19,America/Sao_Paulo
347,3530805,MOGI MIRIM,-22.4332,-46.9532,0,35,6717,19,America/Sao_Paulo
348,3530904,MOMBUCA,-22.9285,-47.559,0,35,6719,19,America/Sao_Paulo
349,3531001,MONCOES,-20.8509,-50.0975,0,35,6721,17,America/Sao_Paulo
350,3531100,MONGAGUA,-24.0809,-46.6265,0,35,6723,13,America/Sao_Paulo
351,3531209,MONTE ALEGRE DO SUL,-22.6817,-46.681,0,35,6725,19,America/Sao_Paulo
352,3531308,MONTE ALTO,-21.2655,-48.4971,0,35,6727,16,America/Sao_Paulo
353,3531407,MONTE APRAZIVEL,-20.768,-49.7184,0,35,6729,17,America/Sao_Paulo
354,3531506,MONTE AZUL PAULISTA,-20.9065,-48.6387,0,35,6731,17,America/Sao_Paulo
355,3531605,MONTE CASTELO,-21.2981,-51.5679,0,35,6733,18,America/Sao_Paulo
356,3531803,MONTE MOR,-22.945,-47.3122,0,35,6737,19,America/Sao_Paulo
357,3531704,MONTEIRO LOBATO,-22.9544,-45.8407,0,35,6735,12,America/Sao_Paulo
358,3531902,MORRO AGUDO,-20.7288,-48.0581,0,35,6739,16,America/Sao_Paulo
359,3532009,MORUNGABA,-22.8811,-46.7896,0,35,6741,11,America/Sao_Paulo
360,3532058,MOTUCA,-21.5103,-48.1538,0,35,7263,16,America/Sao_Paulo
361,3532108,MURUTINGA DO SUL,-20.9908,-51.2774,0,35,6743,18,America/Sao_Paulo
362,3532157,NANTES,-22.6156,-51.24,0,35,804,18,America/Sao_Paulo
363,3532207,NARANDIBA,-22.4057,-51.5274,0,35,6745,18,America/Sao_Paulo
364,3532306,NATIVIDADE DA SERRA,-23.3707,-45.4468,0,35,6747,12,America/Sao_Paulo
365,3532405,NAZARE PAULISTA,-23.1747,-46.3983,0,35,6749,11,America/Sao_Paulo
366,3532504,NEVES PAULISTA,-20.843,-49.6358,0,35,6751,17,America/Sao_Paulo
367,3532603,NHANDEARA,-20.6945,-50.0436,0,35,6753,17,America/Sao_Paulo
368,3532702,NIPOA,-20.9114,-49.7833,0,35,6755,17,America/Sao_Paulo
369,3532801,NOVA ALIANCA,-21.0156,-49.4986,0,35,6757,17,America/Sao_Paulo
370,3532827,NOVA CAMPINA,-24.1224,-48.9022,0,35,3061,15,America/Sao_Paulo
371,3532843,NOVA CANAA PAULISTA,-20.3836,-50.9483,0,35,2985,17,America/Sao_Paulo
372,3532868,NOVA CASTILHO,-20.7615,-50.3477,0,35,806,17,America/Sao_Paulo
373,3532900,NOVA EUROPA,-21.7765,-48.5705,0,35,6759,16,America/Sao_Paulo
374,3533007,NOVA GRANADA,-20.5321,-49.3123,0,35,6761,17,America/Sao_Paulo
375,3533106,NOVA GUATAPORANGA,-21.332,-51.6447,0,35,6763,18,America/Sao_Paulo
376,3533205,NOVA INDEPENDENCIA,-21.1026,-51.4905,0,35,6765,18,America/Sao_Paulo
377,3533304,NOVA LUZITANIA,-20.856,-50.2617,0,35,6767,17,America/Sao_Paulo
378,3533403,NOVA ODESSA,-22.7832,-47.2941,0,35,6769,19,America/Sao_Paulo
379,3533254,NOVAIS,-20.9893,-48.9141,0,35,2979,17,America/Sao_Paulo
380,3533502,NOVO HORIZONTE,-21.4651,-49.2234,0,35,6771,17,America/Sao_Paulo
381,3533601,NUPORANGA,-20.7296,-47.7429,0,35,6773,16,America/Sao_Paulo
382,3533700,OCAUCU,-22.438,-49.922,0,35,6775,14,America/Sao_Paulo
383,3533809,OLEO,-22.9435,-49.3419,0,35,6777,14,America/Sao_Paulo
384,3533908,OLIMPIA,-20.7366,-48.9106,0,35,6779,17,America/Sao_Paulo
385,3534005,ONDA VERDE,-20.6042,-49.2929,0,35,6781,17,America/Sao_Paulo
386,3534104,ORIENTE,-22.1549,-50.0971,0,35,6783,14,America/Sao_Paulo
387,3534203,ORINDIUVA,-20.1861,-49.3464,0,35,6785,17,America/Sao_Paulo
388,3534302,ORLANDIA,-20.7169,-47.8852,0,35,6787,16,America/Sao_Paulo
389,3534401,OSASCO,-23.5324,-46.7916,0,35,6789,11,America/Sao_Paulo
390,3534500,OSCAR BRESSANE,-22.3149,-50.2811,0,35,6791,14,America/Sao_Paulo
391,3534609,OSVALDO CRUZ,-21.7968,-50.8793,0,35,6793,18,America/Sao_Paulo
392,3534708,OURINHOS,-22.9797,-49.8697,0,35,6795,14,America/Sao_Paulo
393,3534807,OURO VERDE,-21.4872,-51.7024,0,35,6797,18,America/Sao_Paulo
394,3534757,OUROESTE,-20.0061,-50.3768,0,35,808,17,America/Sao_Paulo
395,3534906,PACAEMBU,-21.5627,-51.2654,0,35,6799,18,America/Sao_Paulo
396,3535002,PALESTINA,-20.39,-49.4309,0,35,6801,17,America/Sao_Paulo
397,3535101,PALMARES PAULISTA,-21.0854,-48.8037,0,35,6803,17,America/Sao_Paulo
398,3535200,PALMEIRA D'OESTE,-20.4148,-50.7632,0,35,6805,17,America/Sao_Paulo
399,3535309,PALMITAL,-22.7858,-50.218,0,35,6807,18,America/Sao_Paulo
400,3535408,PANORAMA,-21.354,-51.8562,0,35,6809,18,America/Sao_Paulo
401,3535507,PARAGUACU PAULISTA,-22.4114,-50.5732,0,35,6811,18,America/Sao_Paulo
402,3535606,PARAIBUNA,-23.3872,-45.6639,0,35,6813,12,America/Sao_Paulo
403,3535705,PARAISO,-21.0159,-48.7761,0,35,6815,17,America/Sao_Paulo
404,3535804,PARANAPANEMA,-23.3862,-48.7214,0,35,6817,14,America/Sao_Paulo
405,3535903,PARANAPUA,-20.1048,-50.5886,0,35,6819,17,America/Sao_Paulo
406,3536000,PARAPUA,-21.7792,-50.7949,0,35,6821,18,America/Sao_Paulo
407,3536109,PARDINHO,-23.0841,-48.3679,0,35,6823,14,America/Sao_Paulo
408,3536208,PARIQUERA-ACU,-24.7147,-47.8742,0,35,6825,13,America/Sao_Paulo
409,3536257,PARISI,-20.3034,-50.0163,0,35,2989,17,America/Sao_Paulo
410,3536307,PATROCINIO PAULISTA,-20.6384,-47.2801,0,35,6827,16,America/Sao_Paulo
411,3536406,PAULICEIA,-21.3153,-51.8321,0,35,6829,18,America/Sao_Paulo
412,3536505,PAULINIA,-22.7542,-47.1488,0,35,6831,19,America/Sao_Paulo
413,3536570,PAULISTANIA,-22.5768,-49.4008,0,35,810,14,America/Sao_Paulo
414,3536604,PAULO DE FARIA,-20.0296,-49.4,0,35,6833,17,America/Sao_Paulo
415,3536703,PEDERNEIRAS,-22.3511,-48.7781,0,35,6835,14,America/Sao_Paulo
416,3536802,PEDRA BELA,-22.7902,-46.4455,0,35,6837,11,America/Sao_Paulo
417,3536901,PEDRANOPOLIS,-20.2474,-50.1129,0,35,6839,17,America/Sao_Paulo
418,3537008,PEDREGULHO,-20.2535,-47.4775,0,35,6841,16,America/Sao_Paulo
419,3537107,PEDREIRA,-22.7413,-46.8948,0,35,6843,19,America/Sao_Paulo
420,3537156,PEDRINHAS PAULISTA,-22.8174,-50.7933,0,35,2963,18,America/Sao_Paulo
421,3537206,PEDRO DE TOLEDO,-24.2764,-47.2354,0,35,6845,13,America/Sao_Paulo
422,3537305,PENAPOLIS,-21.4148,-50.0769,0,35,6847,18,America/Sao_Paulo
423,3537404,PEREIRA BARRETO,-20.6368,-51.1123,0,35,6849,18,America/Sao_Paulo
424,3537503,PEREIRAS,-23.0804,-47.972,0,35,6851,14,America/Sao_Paulo
425,3537602,PERUIBE,-24.312,-47.0012,0,35,6853,13,America/Sao_Paulo
426,3537701,PIACATU,-21.5921,-50.6003,0,35,6855,18,America/Sao_Paulo
427,3537800,PIEDADE,-23.7139,-47.4256,0,35,6857,15,America/Sao_Paulo
428,3537909,PILAR DO SUL,-23.8077,-47.7222,0,35,6859,15,America/Sao_Paulo
429,3538006,PINDAMONHANGABA,-22.9246,-45.4613,0,35,6861,12,America/Sao_Paulo
430,3538105,PINDORAMA,-21.1853,-48.9086,0,35,6863,17,America/Sao_Paulo
431,3538204,PINHALZINHO,-22.7811,-46.5897,0,35,6867,11,America/Sao_Paulo
432,3538303,PIQUEROBI,-21.8747,-51.7282,0,35,6869,18,America/Sao_Paulo
433,3538501,PIQUETE,-22.6069,-45.1869,0,35,6871,12,America/Sao_Paulo
434,3538600,PIRACAIA,-23.0525,-46.3594,0,35,6873,11,America/Sao_Paulo
435,3538709,PIRACICABA,-22.7338,-47.6476,0,35,6875,19,America/Sao_Paulo
436,3538808,PIRAJU,-23.1981,-49.3803,0,35,6877,14,America/Sao_Paulo
437,3538907,PIRAJUI,-21.999,-49.4608,0,35,6879,14,America/Sao_Paulo
438,3539004,PIRANGI,-21.0886,-48.6607,0,35,6881,17,America/Sao_Paulo
439,3539103,PIRAPORA DO BOM JESUS,-23.3965,-46.9991,0,35,6883,11,America/Sao_Paulo
440,3539202,PIRAPOZINHO,-22.2711,-51.4976,0,35,6885,18,America/Sao_Paulo
441,3539301,PIRASSUNUNGA,-21.996,-47.4257,0,35,6887,19,America/Sao_Paulo
442,3539400,PIRATININGA,-22.4142,-49.1339,0,35,6889,14,America/Sao_Paulo
443,3539509,PITANGUEIRAS,-21.0132,-48.221,0,35,6891,16,America/Sao_Paulo
444,3539608,PLANALTO,-21.0342,-49.933,0,35,6893,18,America/Sao_Paulo
445,3539707,PLATINA,-22.6371,-50.2104,0,35,6895,18,America/Sao_Paulo
446,3539806,POA,-23.5333,-46.3473,0,35,6897,11,America/Sao_Paulo
447,3539905,POLONI,-20.7829,-49.8258,0,35,6899,17,America/Sao_Paulo
448,3540002,POMPEIA,-22.107,-50.176,0,35,6901,14,America/Sao_Paulo
449,3540101,PONGAI,-21.7396,-49.3604,0,35,6903,14,America/Sao_Paulo
450,3540200,PONTAL,-21.0216,-48.0423,0,35,6905,16,America/Sao_Paulo
451,3540259,PONTALINDA,-20.4396,-50.5258,0,35,2987,17,America/Sao_Paulo
452,3540309,PONTES GESTAL,-20.1727,-49.7064,0,35,6907,17,America/Sao_Paulo
453,3540408,POPULINA,-19.9453,-50.538,0,35,6909,17,America/Sao_Paulo
454,3540507,PORANGABA,-23.1761,-48.1195,0,35,6911,15,America/Sao_Paulo
455,3540606,PORTO FELIZ,-23.2093,-47.5251,0,35,6913,15,America/Sao_Paulo
456,3540705,PORTO FERREIRA,-21.8498,-47.487,0,35,6915,19,America/Sao_Paulo
457,3540754,POTIM,-22.8343,-45.2552,0,35,2993,12,America/Sao_Paulo
458,3540804,POTIRENDABA,-21.0428,-49.3815,0,35,6917,17,America/Sao_Paulo
459,3540853,PRACINHA,-21.8496,-51.0868,0,35,812,18,America/Sao_Paulo
460,3540903,PRADOPOLIS,-21.3626,-48.0679,0,35,6919,16,America/Sao_Paulo
461,3541000,PRAIA GRANDE,-24.0084,-46.4121,0,35,6921,13,America/Sao_Paulo
462,3541059,PRATANIA,-22.8112,-48.6636,0,35,814,14,America/Sao_Paulo
463,3541109,PRESIDENTE ALVES,-22.0999,-49.4381,0,35,6923,14,America/Sao_Paulo
464,3541208,PRESIDENTE BERNARDES,-22.0082,-51.5565,0,35,6925,18,America/Sao_Paulo
465,3541307,PRESIDENTE EPITACIO,-21.7651,-52.1111,0,35,6927,18,America/Sao_Paulo
466,3541406,PRESIDENTE PRUDENTE,-22.1207,-51.3925,0,35,6929,18,America/Sao_Paulo
467,3541505,PRESIDENTE VENCESLAU,-21.8732,-51.8447,0,35,6931,18,America/Sao_Paulo
468,3541604,PROMISSAO,-21.5356,-49.8599,0,35,6933,14,America/Sao_Paulo
469,3541653,QUADRA,-23.2993,-48.0547,0,35,816,15,America/Sao_Paulo
470,3541703,QUATA,-22.2456,-50.6966,0,35,6935,18,America/Sao_Paulo
471,3541802,QUEIROZ,-21.7969,-50.2415,0,35,6937,14,America/Sao_Paulo
472,3541901,QUELUZ,-22.5312,-44.7781,0,35,6939,12,America/Sao_Paulo
473,3542008,QUINTANA,-22.0692,-50.307,0,35,6941,14,America/Sao_Paulo
474,3542107,RAFARD,-23.0105,-47.5318,0,35,6943,19,America/Sao_Paulo
475,3542206,RANCHARIA,-22.2269,-50.893,0,35,6945,18,America/Sao_Paulo
476,3542305,REDENCAO DA SERRA,-23.2638,-45.5422,0,35,6947,12,America/Sao_Paulo
477,3542404,REGENTE FEIJO,-22.2181,-51.3055,0,35,6949,18,America/Sao_Paulo
478,3542503,REGINOPOLIS,-21.8914,-49.2268,0,35,6951,14,America/Sao_Paulo
479,3542602,REGISTRO,-24.4979,-47.8449,0,35,6953,13,America/Sao_Paulo
480,3542701,RESTINGA,-20.6056,-47.4833,0,35,6955,16,America/Sao_Paulo
481,3542800,RIBEIRA,-24.6517,-49.0044,0,35,6957,15,America/Sao_Paulo
482,3542909,RIBEIRAO BONITO,-22.0685,-48.182,0,35,6959,16,America/Sao_Paulo
483,3543006,RIBEIRAO BRANCO,-24.2206,-48.7635,0,35,6961,15,America/Sao_Paulo
484,3543105,RIBEIRAO CORRENTE,-20.4579,-47.5904,0,35,6963,16,America/Sao_Paulo
485,3543204,RIBEIRAO DO SUL,-22.789,-49.933,0,35,6965,14,America/Sao_Paulo
486,3543238,RIBEIRAO DOS INDIOS,-21.8382,-51.6103,0,35,818,18,America/Sao_Paulo
487,3543253,RIBEIRAO GRANDE,-24.1011,-48.3679,0,35,3057,15,America/Sao_Paulo
488,3543303,RIBEIRAO PIRES,-23.7067,-46.4058,0,35,6967,11,America/Sao_Paulo
489,3543402,RIBEIRAO PRETO,-21.1699,-47.8099,0,35,6969,16,America/Sao_Paulo
490,3543600,RIFAINA,-20.0803,-47.4291,0,35,6973,16,America/Sao_Paulo
491,3543709,RINCAO,-21.5894,-48.0728,0,35,6975,16,America/Sao_Paulo
492,3543808,RINOPOLIS,-21.7284,-50.7239,0,35,6977,18,America/Sao_Paulo
493,3543907,RIO CLARO,-22.3984,-47.5546,0,35,6979,19,America/Sao_Paulo
494,3544004,RIO DAS PEDRAS,-22.8417,-47.6047,0,35,6981,19,America/Sao_Paulo
495,3544103,RIO GRANDE DA SERRA,-23.7437,-46.3971,0,35,6983,11,America/Sao_Paulo
496,3544202,RIOLANDIA,-19.9868,-49.6836,0,35,6985,17,America/Sao_Paulo
497,3543501,RIVERSUL,-23.829,-49.429,0,35,6971,15,America/Sao_Paulo
498,3544251,ROSANA,-22.5782,-53.0603,0,35,7265,18,America/Sao_Paulo
499,3544301,ROSEIRA,-22.8938,-45.307,0,35,6987,12,America/Sao_Paulo
500,3544400,RUBIACEA,-21.3006,-50.7296,0,35,6989,18,America/Sao_Paulo
501,3544509,RUBINEIA,-20.1759,-51.007,0,35,6991,17,America/Sao_Paulo
502,3544608,SABINO,-21.4593,-49.5755,0,35,6993,14,America/Sao_Paulo
503,3544707,SAGRES,-21.8823,-50.9594,0,35,6995,18,America/Sao_Paulo
504,3544806,SALES,-21.3427,-49.4897,0,35,6997,17,America/Sao_Paulo
505,3544905,SALES OLIVEIRA,-20.7696,-47.8369,0,35,6999,16,America/Sao_Paulo
506,3545001,SALESOPOLIS,-23.5288,-45.8465,0,35,7001,11,America/Sao_Paulo
507,3545100,SALMOURAO,-21.6267,-50.8614,0,35,7003,18,America/Sao_Paulo
508,3545159,SALTINHO,-22.8442,-47.6754,0,35,5445,19,America/Sao_Paulo
509,3545209,SALTO,-23.1996,-47.2931,0,35,7005,11,America/Sao_Paulo
510,3545308,SALTO DE PIRAPORA,-23.6474,-47.5743,0,35,7007,15,America/Sao_Paulo
511,3545407,SALTO GRANDE,-22.8894,-49.9831,0,35,7009,14,America/Sao_Paulo
512,3545506,SANDOVALINA,-22.4551,-51.7648,0,35,7011,18,America/Sao_Paulo
513,3545605,SANTA ADELIA,-21.2427,-48.8063,0,35,7013,17,America/Sao_Paulo
514,3545704,SANTA ALBERTINA,-20.0311,-50.7297,0,35,7015,17,America/Sao_Paulo
515,3545803,SANTA BARBARA D'OESTE,-22.7553,-47.4143,0,35,7017,19,America/Sao_Paulo
516,3546009,SANTA BRANCA,-23.3933,-45.8875,0,35,7021,12,America/Sao_Paulo
517,3546108,SANTA CLARA D'OESTE,-20.09,-50.9491,0,35,7023,17,America/Sao_Paulo
518,3546207,SANTA CRUZ DA CONCEICAO,-22.1405,-47.4512,0,35,7025,19,America/Sao_Paulo
519,3546256,SANTA CRUZ DA ESPERANCA,-21.2951,-47.4304,0,35,820,16,America/Sao_Paulo
520,3546306,SANTA CRUZ DAS PALMEIRAS,-21.8235,-47.248,0,35,7027,19,America/Sao_Paulo
521,3546405,SANTA CRUZ DO RIO PARDO,-22.8988,-49.6354,0,35,7029,14,America/Sao_Paulo
522,3546504,SANTA ERNESTINA,-21.4618,-48.3953,0,35,7031,16,America/Sao_Paulo
523,3546603,SANTA FE DO SUL,-20.2083,-50.932,0,35,7033,17,America/Sao_Paulo
524,3546702,SANTA GERTRUDES,-22.4572,-47.5272,0,35,7035,19,America/Sao_Paulo
525,3546801,SANTA ISABEL,-23.3172,-46.2237,0,35,7037,11,America/Sao_Paulo
526,3546900,SANTA LUCIA,-21.685,-48.0885,0,35,7039,16,America/Sao_Paulo
527,3547007,SANTA MARIA DA SERRA,-22.5661,-48.1593,0,35,7041,19,America/Sao_Paulo
528,3547106,SANTA MERCEDES,-21.3495,-51.7564,0,35,7043,18,America/Sao_Paulo
529,3547403,SANTA RITA D'OESTE,-20.1414,-50.8358,0,35,7049,17,America/Sao_Paulo
530,3547502,SANTA RITA DO PASSA QUATRO,-21.7083,-47.478,0,35,7051,19,America/Sao_Paulo
531,3547601,SANTA ROSA DE VITERBO,-21.4776,-47.3622,0,35,7053,16,America/Sao_Paulo
532,3547650,SANTA SALETE,-20.2429,-50.6887,0,35,822,17,America/Sao_Paulo
533,3547205,SANTANA DA PONTE PENSA,-20.2523,-50.8014,0,35,7045,17,America/Sao_Paulo
534,3547304,SANTANA DE PARNAIBA,-23.4439,-46.9178,0,35,7047,11,America/Sao_Paulo
535,3547700,SANTO ANASTACIO,-21.9747,-51.6527,0,35,7055,18,America/Sao_Paulo
536,3547809,SANTO ANDRE,-23.6737,-46.5432,0,35,7057,11,America/Sao_Paulo
537,3547908,SANTO ANTONIO DA ALEGRIA,-21.0864,-47.1464,0,35,7059,16,America/Sao_Paulo
538,3548005,SANTO ANTONIO DE POSSE,-22.6029,-46.9192,0,35,7061,19,America/Sao_Paulo
539,3548054,SANTO ANTONIO DO ARACANGUA,-20.9331,-50.498,0,35,2939,18,America/Sao_Paulo
540,3548104,SANTO ANTONIO DO JARDIM,-22.1121,-46.6845,0,35,7063,19,America/Sao_Paulo
541,3548203,SANTO ANTONIO DO PINHAL,-22.827,-45.663,0,35,7065,12,America/Sao_Paulo
542,3548302,SANTO EXPEDITO,-21.8467,-51.3929,0,35,7067,18,America/Sao_Paulo
543,3548401,SANTOPOLIS DO AGUAPEI,-21.6376,-50.5044,0,35,7069,18,America/Sao_Paulo
544,3548500,SANTOS,-23.9535,-46.335,0,35,7071,13,America/Sao_Paulo
545,3548609,SAO BENTO DO SAPUCAI,-22.6837,-45.7287,0,35,7073,12,America/Sao_Paulo
546,3548708,SAO BERNARDO DO CAMPO,-23.6914,-46.5646,0,35,7075,11,America/Sao_Paulo
547,3548807,SAO CAETANO DO SUL,-23.6229,-46.5548,0,35,7077,11,America/Sao_Paulo
548,3548906,SAO CARLOS,-22.0174,-47.886,0,35,7079,16,America/Sao_Paulo
549,3549003,SAO FRANCISCO,-20.3623,-50.6952,0,35,7081,17,America/Sao_Paulo
550,3549102,SAO JOAO DA BOA VISTA,-21.9707,-46.7944,0,35,7083,19,America/Sao_Paulo
551,3549201,SAO JOAO DAS DUAS PONTES,-20.3879,-50.3792,0,35,7085,17,America/Sao_Paulo
552,3549250,SAO JOAO DE IRACEMA,-20.5111,-50.3561,0,35,2941,17,America/Sao_Paulo
553,3549300,SAO JOAO DO PAU D'ALHO,-21.2662,-51.6672,0,35,7087,18,America/Sao_Paulo
554,3549409,SAO JOAQUIM DA BARRA,-20.5812,-47.8593,0,35,7089,16,America/Sao_Paulo
555,3549508,SAO JOSE DA BELA VISTA,-20.5935,-47.6424,0,35,7091,16,America/Sao_Paulo
556,3549607,SAO JOSE DO BARREIRO,-22.6414,-44.5774,0,35,7093,12,America/Sao_Paulo
557,3549706,SAO JOSE DO RIO PARDO,-21.5953,-46.8873,0,35,7095,19,America/Sao_Paulo
558,3549805,SAO JOSE DO RIO PRETO,-20.8113,-49.3758,0,35,7097,17,America/Sao_Paulo
559,3549904,SAO JOSE DOS CAMPOS,-23.1896,-45.8841,0,35,7099,12,America/Sao_Paulo
560,3549953,SAO LOURENCO DA SERRA,-23.8491,-46.9432,0,35,5447,11,America/Sao_Paulo
561,3550001,SAO LUIZ DO PARAITINGA,-23.222,-45.3109,0,35,7101,12,America/Sao_Paulo
562,3550100,SAO MANUEL,-22.7321,-48.5723,0,35,7103,14,America/Sao_Paulo
563,3550209,SAO MIGUEL ARCANJO,-23.8782,-47.9935,0,35,7105,15,America/Sao_Paulo
564,3550308,SAO PAULO,-23.5329,-46.6395,1,35,7107,11,America/Sao_Paulo
565,3550407,SAO PEDRO,-22.5483,-47.9096,0,35,7109,19,America/Sao_Paulo
566,3550506,SAO PEDRO DO TURVO,-22.7453,-49.7428,0,35,7111,14,America/Sao_Paulo
567,3550605,SAO ROQUE,-23.5226,-47.1357,0,35,7113,11,America/Sao_Paulo
568,3550704,SAO SEBASTIAO,-23.7951,-45.4143,0,35,7115,12,America/Sao_Paulo
569,3550803,SAO SEBASTIAO DA GRAMA,-21.7041,-46.8208,0,35,7117,19,America/Sao_Paulo
570,3550902,SAO SIMAO,-21.4732,-47.5518,0,35,7119,16,America/Sao_Paulo
571,3551009,SAO VICENTE,-23.9574,-46.3883,0,35,7121,13,America/Sao_Paulo
572,3551108,SARAPUI,-23.6397,-47.8249,0,35,7123,15,America/Sao_Paulo
573,3551207,SARUTAIA,-23.2721,-49.4763,0,35,7125,14,America/Sao_Paulo
574,3551306,SEBASTIANOPOLIS DO SUL,-20.6523,-49.925,0,35,7127,17,America/Sao_Paulo
575,3551405,SERRA AZUL,-21.3074,-47.5602,0,35,7129,16,America/Sao_Paulo
576,3551603,SERRA NEGRA,-22.6139,-46.7033,0,35,7133,19,America/Sao_Paulo
577,3551504,SERRANA,-21.2043,-47.5952,0,35,7131,16,America/Sao_Paulo
578,3551702,SERTAOZINHO,-21.1316,-47.9875,0,35,7135,16,America/Sao_Paulo
579,3551801,SETE BARRAS,-24.382,-47.9279,0,35,7137,13,America/Sao_Paulo
580,3551900,SEVERINIA,-20.8108,-48.8054,0,35,7139,17,America/Sao_Paulo
581,3552007,SILVEIRAS,-22.6638,-44.8522,0,35,7141,12,America/Sao_Paulo
582,3552106,SOCORRO,-22.5903,-46.5251,0,35,7143,19,America/Sao_Paulo
583,3552205,SOROCABA,-23.4969,-47.4451,0,35,7145,15,America/Sao_Paulo
584,3552304,SUD MENNUCCI,-20.6872,-50.9238,0,35,7147,18,America/Sao_Paulo
585,3552403,SUMARE,-22.8204,-47.2728,0,35,7149,19,America/Sao_Paulo
586,3552551,SUZANAPOLIS,-20.4981,-51.0268,0,35,2945,18,America/Sao_Paulo
587,3552502,SUZANO,-23.5448,-46.3112,0,35,7151,11,America/Sao_Paulo
588,3552601,TABAPUA,-20.9602,-49.0307,0,35,7153,17,America/Sao_Paulo
589,3552700,TABATINGA,-21.7239,-48.6896,0,35,7155,16,America/Sao_Paulo
590,3552809,TABOAO DA SERRA,-23.6019,-46.7526,0,35,7157,11,America/Sao_Paulo
591,3552908,TACIBA,-22.3866,-51.2882,0,35,7159,18,America/Sao_Paulo
592,3553005,TAGUAI,-23.4452,-49.4024,0,35,7161,14,America/Sao_Paulo
593,3553104,TAIACU,-21.1431,-48.5112,0,35,7163,16,America/Sao_Paulo
594,3553203,TAIUVA,-21.1223,-48.4528,0,35,7165,16,America/Sao_Paulo
595,3553302,TAMBAU,-21.7029,-47.2703,0,35,7167,19,America/Sao_Paulo
596,3553401,TANABI,-20.6228,-49.6563,0,35,7169,17,America/Sao_Paulo
597,3553500,TAPIRAI,-23.9612,-47.5062,0,35,7171,15,America/Sao_Paulo
598,3553609,TAPIRATIBA,-21.4713,-46.7448,0,35,7173,19,America/Sao_Paulo
599,3553658,TAQUARAL,-21.0737,-48.4126,0,35,824,16,America/Sao_Paulo
600,3553708,TAQUARITINGA,-21.4049,-48.5103,0,35,7175,16,America/Sao_Paulo
601,3553807,TAQUARITUBA,-23.5307,-49.241,0,35,7177,14,America/Sao_Paulo
602,3553856,TAQUARIVAI,-23.9211,-48.6948,0,35,3063,15,America/Sao_Paulo
603,3553906,TARABAI,-22.3016,-51.5621,0,35,7179,18,America/Sao_Paulo
604,3553955,TARUMA,-22.7429,-50.5786,0,35,7267,18,America/Sao_Paulo
605,3554003,TATUI,-23.3487,-47.8461,0,35,7181,15,America/Sao_Paulo
606,3554102,TAUBATE,-23.0104,-45.5593,0,35,7183,12,America/Sao_Paulo
607,3554201,TEJUPA,-23.3425,-49.3722,0,35,7185,14,America/Sao_Paulo
608,3554300,TEODORO SAMPAIO,-22.5299,-52.1682,0,35,7187,18,America/Sao_Paulo
609,3554409,TERRA ROXA,-20.787,-48.3314,0,35,7189,17,America/Sao_Paulo
610,3554508,TIETE,-23.1101,-47.7164,0,35,7191,15,America/Sao_Paulo
611,3554607,TIMBURI,-23.2057,-49.6096,0,35,7193,14,America/Sao_Paulo
612,3554656,TORRE DE PEDRA,-23.2462,-48.1955,0,35,3227,15,America/Sao_Paulo
613,3554706,TORRINHA,-22.4237,-48.1731,0,35,7195,14,America/Sao_Paulo
614,3554755,TRABIJU,-22.0388,-48.3342,0,35,826,16,America/Sao_Paulo
615,3554805,TREMEMBE,-22.9571,-45.5475,0,35,7197,12,America/Sao_Paulo
616,3554904,TRES FRONTEIRAS,-20.2344,-50.8905,0,35,7199,17,America/Sao_Paulo
617,3554953,TUIUTI,-22.8193,-46.6937,0,35,2955,11,America/Sao_Paulo
618,3555000,TUPA,-21.9335,-50.5191,0,35,7201,14,America/Sao_Paulo
619,3555109,TUPI PAULISTA,-21.3825,-51.575,0,35,7203,18,America/Sao_Paulo
620,3555208,TURIUBA,-20.9428,-50.1135,0,35,7205,18,America/Sao_Paulo
621,3555307,TURMALINA,-20.0486,-50.4792,0,35,7207,17,America/Sao_Paulo
622,3555356,UBARANA,-21.165,-49.7198,0,35,2971,17,America/Sao_Paulo
623,3555406,UBATUBA,-23.4332,-45.0834,0,35,7209,12,America/Sao_Paulo
624,3555505,UBIRAJARA,-22.5272,-49.6613,0,35,7211,14,America/Sao_Paulo
625,3555604,UCHOA,-20.9511,-49.1713,0,35,7213,17,America/Sao_Paulo
626,3555703,UNIAO PAULISTA,-20.8862,-49.9025,0,35,7215,17,America/Sao_Paulo
627,3555802,URANIA,-20.2455,-50.6455,0,35,7217,17,America/Sao_Paulo
628,3555901,URU,-21.7866,-49.2848,0,35,7219,14,America/Sao_Paulo
629,3556008,URUPES,-21.2032,-49.2931,0,35,7221,17,America/Sao_Paulo
630,3556107,VALENTIM GENTIL,-20.4217,-50.0889,0,35,7223,17,America/Sao_Paulo
631,3556206,VALINHOS,-22.9698,-46.9974,0,35,7225,19,America/Sao_Paulo
632,3556305,VALPARAISO,-21.2229,-50.8699,0,35,7227,18,America/Sao_Paulo
633,3556354,VARGEM,-22.887,-46.4124,0,35,2957,11,America/Sao_Paulo
634,3556404,VARGEM GRANDE DO SUL,-21.8322,-46.8913,0,35,7231,19,America/Sao_Paulo
635,3556453,VARGEM GRANDE PAULISTA,-23.5993,-47.022,0,35,7273,11,America/Sao_Paulo
636,3556503,VARZEA PAULISTA,-23.2136,-46.8234,0,35,7233,11,America/Sao_Paulo
637,3556602,VERA CRUZ,-22.2183,-49.8207,0,35,7235,14,America/Sao_Paulo
638,3556701,VINHEDO,-23.0302,-46.9833,0,35,7237,19,America/Sao_Paulo
639,3556800,VIRADOURO,-20.8734,-48.293,0,35,7239,17,America/Sao_Paulo
640,3556909,VISTA ALEGRE DO ALTO,-21.1692,-48.6284,0,35,7241,16,America/Sao_Paulo
641,3556958,VITORIA BRASIL,-20.1956,-50.4875,0,35,828,17,America/Sao_Paulo
642,3557006,VOTORANTIM,-23.5446,-47.4388,0,35,7243,15,America/Sao_Paulo
643,3557105,VOTUPORANGA,-20.4237,-49.9781,0,35,7245,17,America/Sao_Paulo
644,3557154,ZACARIAS,-21.0506,-50.0552,0,35,2973,18,America/Sao_Paulo
